Zipcode,ZipCodeType,City,LocationType,Lat,Long,Risk
7006,STANDARD,CALDWELL,PRIMARY,40.83,-74.27,1.0
8809,STANDARD,CLINTON,PRIMARY,40.63,-74.91,0.0
7933,STANDARD,GILLETTE,PRIMARY,40.7,-74.47,0.0
7934,STANDARD,GLADSTONE,PRIMARY,40.72,-74.67,0.0
7607,STANDARD,MAYWOOD,PRIMARY,40.9,-74.06,0.0
8833,STANDARD,LEBANON,PRIMARY,40.64,-74.83,0.0
7962,PO BOX,MORRISTOWN,PRIMARY,40.79,-74.47,0.0
7438,STANDARD,OAK RIDGE,PRIMARY,41.04,-74.48,0.0
7051,PO BOX,ORANGE,PRIMARY,40.76,-74.23,0.0
7653,PO BOX,PARAMUS,PRIMARY,40.94,-74.07,0.0
7506,STANDARD,HAWTHORNE,PRIMARY,40.95,-74.15,0.0
7058,STANDARD,PINE BROOK,PRIMARY,40.86,-74.34,0.0
8890,PO BOX,ZAREPHATH,PRIMARY,40.53,-74.56,0.0
7871,STANDARD,SPARTA,PRIMARY,41.04,-74.62,0.0
8504,PO BOX,BLAWENBURG,PRIMARY,40.4,-74.7,0.0
8110,STANDARD,PENNSAUKEN,PRIMARY,39.96,-75.05,0.0
8212,PO BOX,CAPE MAY POINT,PRIMARY,38.93,-74.96,0.0
8311,STANDARD,CEDARVILLE,PRIMARY,39.32,-75.2,0.0
8021,STANDARD,CLEMENTON,PRIMARY,39.8,-74.98,0.0
7740,STANDARD,LONG BRANCH,PRIMARY,40.29,-73.98,0.0
8347,PO BOX,NORMA,PRIMARY,39.54,-75.13,0.0
8065,STANDARD,PALMYRA,PRIMARY,40.0,-75.03,0.0
8535,STANDARD,MILLSTONE TOWNSHIP,PRIMARY,40.21,-74.44,0.0
8742,STANDARD,POINT PLEASANT BEACH,PRIMARY,40.09,-74.04,0.0
7702,STANDARD,SHREWSBURY,PRIMARY,40.32,-74.05,0.0
8555,PO BOX,ROOSEVELT,PRIMARY,40.22,-74.47,0.0
8620,STANDARD,TRENTON,PRIMARY,40.22,-74.76,0.0
8093,STANDARD,WESTVILLE,PRIMARY,39.86,-75.13,0.0
7477,UNIQUE,WAYNE,PRIMARY,40.92,-74.27,0.0
7711,STANDARD,ALLENHURST,PRIMARY,40.23,-74.0,0.0
8004,STANDARD,ATCO,PRIMARY,39.76,-74.85,0.0
8502,STANDARD,BELLE MEAD,PRIMARY,40.46,-74.64,0.0
8732,PO BOX,ISLAND HEIGHTS,PRIMARY,39.94,-74.14,0.0
8043,STANDARD,VOORHEES,PRIMARY,39.84,-74.95,0.0
7739,STANDARD,LITTLE SILVER,PRIMARY,40.33,-74.03,0.0
8053,STANDARD,MARLTON,PRIMARY,39.9,-74.92,0.0
8223,STANDARD,MARMORA,PRIMARY,39.26,-74.66,0.0
8063,STANDARD,NATIONAL PARK,PRIMARY,39.86,-75.18,0.0
8067,STANDARD,PEDRICKTOWN,PRIMARY,39.73,-75.4,0.0
8751,STANDARD,SEASIDE HEIGHTS,PRIMARY,39.94,-74.07,0.0
8248,PO BOX,STRATHMERE,PRIMARY,39.19,-74.66,0.0
8560,STANDARD,TITUSVILLE,PRIMARY,40.31,-74.86,0.0
8754,PO BOX,TOMS RIVER,PRIMARY,39.95,-74.18,0.0
8625,PO BOX,TRENTON,PRIMARY,40.22,-74.76,0.0
7821,STANDARD,ANDOVER,PRIMARY,40.98,-74.74,0.0
8805,STANDARD,BOUND BROOK,PRIMARY,40.56,-74.53,0.0
7008,STANDARD,CARTERET,PRIMARY,40.58,-74.22,0.0
7013,STANDARD,CLIFTON,PRIMARY,40.86,-74.15,0.0
7014,STANDARD,CLIFTON,PRIMARY,40.86,-74.15,0.0
7628,STANDARD,DUMONT,PRIMARY,40.94,-73.99,0.0
7022,STANDARD,FAIRVIEW,PRIMARY,40.81,-74.0,0.0
8825,STANDARD,FRENCHTOWN,PRIMARY,40.52,-75.05,0.0
7428,PO BOX,MC AFEE,PRIMARY,41.2,-74.55,0.0
8933,UNIQUE,NEW BRUNSWICK,PRIMARY,40.48,-74.44,0.0
8862,PO BOX,PERTH AMBOY,PRIMARY,40.52,-74.27,0.0
8873,STANDARD,SOMERSET,PRIMARY,40.49,-74.48,0.0
7079,STANDARD,SOUTH ORANGE,PRIMARY,40.74,-74.26,0.0
7666,STANDARD,TEANECK,PRIMARY,40.88,-74.01,0.0
7086,STANDARD,WEEHAWKEN,PRIMARY,40.76,-74.01,0.0
7881,STANDARD,WALLPACK CENTER,PRIMARY,41.12,-74.91,0.0
8203,STANDARD,BRIGANTINE,PRIMARY,39.41,-74.36,0.0
8313,PO BOX,DEERFIELD STREET,PRIMARY,39.49,-75.21,0.0
8048,STANDARD,LUMBERTON,PRIMARY,39.96,-74.8,0.0
8059,STANDARD,MOUNT EPHRAIM,PRIMARY,39.88,-75.09,0.0
8075,STANDARD,RIVERSIDE,PRIMARY,40.03,-74.95,0.0
8556,STANDARD,ROSEMONT,PRIMARY,40.42,-74.99,0.0
8628,STANDARD,TRENTON,PRIMARY,40.22,-74.76,0.0
8629,STANDARD,TRENTON,PRIMARY,40.22,-74.76,0.0
8647,UNIQUE,TRENTON,PRIMARY,40.22,-74.76,0.0
8252,PO BOX,WHITESBORO,PRIMARY,39.04,-74.86,0.0
7826,STANDARD,BRANCHVILLE,PRIMARY,41.14,-74.74,0.0
7928,STANDARD,CHATHAM,PRIMARY,40.74,-74.38,0.0
7643,STANDARD,LITTLE FERRY,PRIMARY,40.84,-74.03,0.0
8848,STANDARD,MILFORD,PRIMARY,40.56,-75.09,0.0
7046,STANDARD,MOUNTAIN LAKES,PRIMARY,40.89,-74.44,0.0
7191,UNIQUE,NEWARK,PRIMARY,40.72,-74.17,0.0
7976,STANDARD,NEW VERNON,PRIMARY,40.73,-74.48,0.0
7052,STANDARD,WEST ORANGE,PRIMARY,40.79,-74.26,0.0
7508,STANDARD,HALEDON,PRIMARY,40.93,-74.18,0.0
7510,STANDARD,PATERSON,PRIMARY,40.91,-74.16,0.0
7512,STANDARD,TOTOWA,PRIMARY,40.9,-74.22,0.0
8863,STANDARD,FORDS,PRIMARY,40.54,-74.31,0.0
7663,STANDARD,SADDLE BROOK,PRIMARY,40.9,-74.09,0.0
8871,PO BOX,SAYREVILLE,PRIMARY,40.46,-74.32,0.0
7980,STANDARD,STIRLING,PRIMARY,40.68,-74.49,0.0
7195,UNIQUE,NEWARK,PRIMARY,40.72,-74.17,0.0
8005,STANDARD,BARNEGAT,PRIMARY,39.75,-74.22,0.0
8022,STANDARD,COLUMBUS,PRIMARY,40.06,-74.68,0.0
8033,STANDARD,HADDONFIELD,PRIMARY,39.89,-75.03,0.0
8069,STANDARD,PENNS GROVE,PRIMARY,39.72,-75.46,0.0
8611,STANDARD,TRENTON,PRIMARY,40.22,-74.76,0.0
8096,STANDARD,WEST DEPTFORD,PRIMARY,39.83,-75.15,0.0
7401,STANDARD,ALLENDALE,PRIMARY,41.03,-74.13,0.0
7620,PO BOX,ALPINE,PRIMARY,40.95,-73.92,0.0
7827,STANDARD,MONTAGUE,PRIMARY,41.29,-74.74,0.0
7803,STANDARD,MINE HILL,PRIMARY,40.87,-74.6,0.0
7935,STANDARD,GREEN VILLAGE,PRIMARY,40.74,-74.45,0.0
7699,UNIQUE,TETERBORO,PRIMARY,40.85,-74.06,0.0
7642,STANDARD,HILLSDALE,PRIMARY,41.0,-74.04,0.0
7961,PO BOX,CONVENT STATION,PRIMARY,40.79,-74.47,0.0
7189,UNIQUE,NEWARK,PRIMARY,40.72,-74.17,0.0
8903,PO BOX,NEW BRUNSWICK,PRIMARY,40.48,-74.44,0.0
8906,PO BOX,NEW BRUNSWICK,PRIMARY,40.48,-74.44,0.0
7647,STANDARD,NORTHVALE,PRIMARY,41.0,-73.95,0.0
8865,STANDARD,PHILLIPSBURG,PRIMARY,40.68,-75.18,0.0
7012,STANDARD,CLIFTON,PRIMARY,40.86,-74.15,0.0
8812,STANDARD,DUNELLEN,PRIMARY,40.58,-74.46,0.0
7033,STANDARD,KENILWORTH,PRIMARY,40.67,-74.28,0.0
7855,PO BOX,MIDDLEVILLE,PRIMARY,41.06,-74.89,0.0
7856,STANDARD,MOUNT ARLINGTON,PRIMARY,40.91,-74.64,0.0
8858,PO BOX,OLDWICK,PRIMARY,40.66,-74.74,0.0
8861,STANDARD,PERTH AMBOY,PRIMARY,40.52,-74.27,0.0
7978,PO BOX,PLUCKEMIN,PRIMARY,40.66,-74.68,0.0
7446,STANDARD,RAMSEY,PRIMARY,41.05,-74.14,0.0
7072,STANDARD,CARLSTADT,PRIMARY,40.82,-74.06,0.0
8885,PO BOX,STANTON,PRIMARY,40.58,-74.81,0.0
7876,STANDARD,SUCCASUNNA,PRIMARY,40.85,-74.65,0.0
7082,STANDARD,TOWACO,PRIMARY,40.93,-74.34,0.0
8014,STANDARD,BRIDGEPORT,PRIMARY,39.8,-75.34,0.0
8034,STANDARD,CHERRY HILL,PRIMARY,39.9,-74.99,0.0
7721,STANDARD,CLIFFWOOD,PRIMARY,40.43,-74.23,0.0
8026,STANDARD,GIBBSBORO,PRIMARY,39.83,-74.96,0.0
8042,PO BOX,JULIUSTOWN,PRIMARY,39.95,-74.66,0.0
8733,STANDARD,LAKEHURST,PRIMARY,40.01,-74.32,0.0
8759,STANDARD,MANCHESTER TOWNSHIP,PRIMARY,39.93,-74.39,0.0
8701,STANDARD,LAKEWOOD,PRIMARY,40.09,-74.21,0.0
8328,STANDARD,MALAGA,PRIMARY,39.57,-75.06,0.0
8329,PO BOX,MAURICETOWN,PRIMARY,39.26,-74.97,0.0
7754,PO BOX,NEPTUNE,PRIMARY,40.21,-74.08,0.0
8619,STANDARD,TRENTON,PRIMARY,40.22,-74.76,0.0
8361,STANDARD,VINELAND,PRIMARY,39.46,-74.99,0.0
8091,STANDARD,WEST BERLIN,PRIMARY,39.8,-74.93,0.0
7005,STANDARD,BOONTON,PRIMARY,40.9,-74.4,0.0
7009,STANDARD,CEDAR GROVE,PRIMARY,40.85,-74.22,0.0
7015,PO BOX,CLIFTON,PRIMARY,40.86,-74.15,0.0
7201,STANDARD,ELIZABETH,PRIMARY,40.66,-74.19,0.0
7416,STANDARD,FRANKLIN,PRIMARY,41.11,-74.58,0.0
7311,STANDARD,JERSEY CITY,PRIMARY,40.71,-74.06,0.0
7395,UNIQUE,JERSEY CITY,PRIMARY,40.72,-74.08,0.0
7399,UNIQUE,JERSEY CITY,PRIMARY,40.71,-74.06,0.0
8832,STANDARD,KEASBEY,PRIMARY,40.51,-74.31,0.0
7495,STANDARD,MAHWAH,PRIMARY,41.08,-74.18,0.0
7970,PO BOX,MOUNT FREEDOM,PRIMARY,40.84,-74.48,0.0
7103,STANDARD,NEWARK,PRIMARY,40.72,-74.17,0.0
7111,STANDARD,IRVINGTON,PRIMARY,40.72,-74.23,0.0
7193,UNIQUE,NEWARK,PRIMARY,40.72,-74.17,0.0
7657,STANDARD,RIDGEFIELD,PRIMARY,40.83,-74.01,0.0
7096,PO BOX,SECAUCUS,PRIMARY,40.78,-74.06,0.0
7080,STANDARD,SOUTH PLAINFIELD,PRIMARY,40.57,-74.41,0.0
8887,STANDARD,THREE BRIDGES,PRIMARY,40.52,-74.8,0.0
7474,PO BOX,WAYNE,PRIMARY,40.94,-74.24,0.0
8310,STANDARD,BUENA,PRIMARY,39.52,-74.94,0.0
8218,PO BOX,GOSHEN,PRIMARY,39.11,-74.86,0.0
8039,PO BOX,HARRISONVILLE,PRIMARY,39.73,-75.32,0.0
7733,STANDARD,HOLMDEL,PRIMARY,40.37,-74.17,0.0
8525,STANDARD,HOPEWELL,PRIMARY,40.38,-74.76,0.0
8530,STANDARD,LAMBERTVILLE,PRIMARY,40.36,-74.94,0.0
8060,STANDARD,MOUNT HOLLY,PRIMARY,39.99,-74.78,0.0
8073,PO BOX,RANCOCAS,PRIMARY,40.02,-74.88,0.0
8609,STANDARD,TRENTON,PRIMARY,40.22,-74.76,0.0
8561,PO BOX,WINDSOR,PRIMARY,40.21,-74.61,0.0
8097,STANDARD,WOODBURY HEIGHTS,PRIMARY,39.81,-75.15,0.0
8808,PO BOX,BROADWAY,PRIMARY,40.71,-75.05,0.0
7011,STANDARD,CLIFTON,PRIMARY,40.86,-74.15,0.0
7833,PO BOX,DELAWARE,PRIMARY,40.88,-75.04,0.0
7205,STANDARD,HILLSIDE,PRIMARY,40.69,-74.23,0.0
7417,STANDARD,FRANKLIN LAKES,PRIMARY,41.0,-74.2,0.0
8831,STANDARD,MONROE TOWNSHIP,PRIMARY,40.34,-74.44,0.0
7424,STANDARD,LITTLE FALLS,PRIMARY,40.87,-74.21,0.0
8846,STANDARD,MIDDLESEX,PRIMARY,40.57,-74.5,0.0
8989,UNIQUE,NEW BRUNSWICK,PRIMARY,40.48,-74.44,0.0
7069,STANDARD,WATCHUNG,PRIMARY,40.64,-74.44,0.0
7979,PO BOX,POTTERSVILLE,PRIMARY,40.66,-74.82,0.0
8869,STANDARD,RARITAN,PRIMARY,40.57,-74.64,0.0
7451,PO BOX,RIDGEWOOD,PRIMARY,40.98,-74.11,0.0
7091,PO BOX,WESTFIELD,PRIMARY,40.65,-74.34,0.0
8404,PO BOX,ATLANTIC CITY,PRIMARY,39.36,-74.42,0.0
8723,STANDARD,BRICK,PRIMARY,40.06,-74.11,0.0
8108,STANDARD,COLLINGSWOOD,PRIMARY,39.91,-75.07,0.0
7731,STANDARD,HOWELL,PRIMARY,40.14,-74.19,0.0
8045,STANDARD,LAWNSIDE,PRIMARY,39.86,-75.03,0.0
7752,PO BOX,NAVESINK,PRIMARY,40.39,-74.11,0.0
8533,STANDARD,NEW EGYPT,PRIMARY,40.06,-74.53,0.0
8344,STANDARD,NEWFIELD,PRIMARY,39.54,-75.01,0.0
8346,STANDARD,NEWTONVILLE,PRIMARY,39.56,-74.85,0.0
8544,UNIQUE,PRINCETON,PRIMARY,40.35,-74.65,0.0
8243,STANDARD,SEA ISLE CITY,PRIMARY,39.15,-74.69,0.0
8081,STANDARD,SICKLERVILLE,PRIMARY,39.73,-74.98,0.0
8085,STANDARD,SWEDESBORO,PRIMARY,39.74,-75.31,0.0
8086,STANDARD,THOROFARE,PRIMARY,39.85,-75.18,0.0
8646,UNIQUE,TRENTON,PRIMARY,40.22,-74.76,0.0
7194,UNIQUE,NEWARK,PRIMARY,40.73,-74.17,0.0
7309,STANDARD,JERSEY CITY,PRIMARY,40.71,-74.03,0.0
7712,STANDARD,ASBURY PARK,PRIMARY,40.22,-74.01,0.0
8318,STANDARD,ELMER,PRIMARY,39.59,-75.17,0.0
8319,STANDARD,ESTELL MANOR,PRIMARY,39.35,-74.77,0.0
8536,STANDARD,PLAINSBORO,PRIMARY,40.33,-74.58,0.0
8349,STANDARD,PORT NORRIS,PRIMARY,39.24,-75.04,0.0
7704,STANDARD,FAIR HAVEN,PRIMARY,40.36,-74.03,0.0
8242,STANDARD,RIO GRANDE,PRIMARY,39.02,-74.87,0.0
8076,PO BOX,RIVERTON,PRIMARY,40.01,-75.01,0.0
8078,STANDARD,RUNNEMEDE,PRIMARY,39.85,-75.07,0.0
8246,PO BOX,SOUTH SEAVILLE,PRIMARY,39.17,-74.77,0.0
8666,UNIQUE,TRENTON,PRIMARY,40.22,-74.76,0.0
7869,STANDARD,RANDOLPH,PRIMARY,40.84,-74.58,0.0
8837,STANDARD,EDISON,PRIMARY,40.52,-74.36,0.0
7931,STANDARD,FAR HILLS,PRIMARY,40.69,-74.62,0.0
7423,STANDARD,HO HO KUS,PRIMARY,40.99,-74.09,0.0
7302,STANDARD,JERSEY CITY,PRIMARY,40.71,-74.06,0.0
7310,STANDARD,JERSEY CITY,PRIMARY,40.71,-74.06,0.0
7850,STANDARD,LANDING,PRIMARY,40.9,-74.66,0.0
7938,PO BOX,LIBERTY CORNER,PRIMARY,40.68,-74.56,0.0
7963,PO BOX,MORRISTOWN,PRIMARY,40.79,-74.47,0.0
7857,STANDARD,NETCONG,PRIMARY,40.89,-74.7,0.0
7102,STANDARD,NEWARK,PRIMARY,40.72,-74.17,0.0
7440,STANDARD,PEQUANNOCK,PRIMARY,40.94,-74.29,0.0
7059,STANDARD,WARREN,PRIMARY,40.63,-74.51,0.0
7060,STANDARD,PLAINFIELD,PRIMARY,40.63,-74.4,0.0
7073,STANDARD,EAST RUTHERFORD,PRIMARY,40.81,-74.08,0.0
7879,PO BOX,TRANQUILITY,PRIMARY,40.95,-74.8,0.0
7882,STANDARD,WASHINGTON,PRIMARY,40.75,-74.98,0.0
7710,PO BOX,ADELPHIA,PRIMARY,40.21,-74.25,0.0
8105,STANDARD,CAMDEN,PRIMARY,39.93,-75.1,0.0
7722,STANDARD,COLTS NECK,PRIMARY,40.28,-74.16,0.0
8520,STANDARD,HIGHTSTOWN,PRIMARY,40.26,-74.52,0.0
8736,STANDARD,MANASQUAN,PRIMARY,40.11,-74.03,0.0
8342,PO BOX,MIZPAH,PRIMARY,39.46,-74.72,0.0
8054,STANDARD,MOUNT LAUREL,PRIMARY,39.94,-74.9,0.0
8345,STANDARD,NEWPORT,PRIMARY,39.28,-75.16,0.0
8068,STANDARD,PEMBERTON,PRIMARY,39.97,-74.68,0.0
8741,STANDARD,PINE BEACH,PRIMARY,39.93,-74.17,0.0
8550,STANDARD,PRINCETON JUNCTION,PRIMARY,40.32,-74.62,0.0
8752,STANDARD,SEASIDE PARK,PRIMARY,39.79,-74.09,0.0
8558,STANDARD,SKILLMAN,PRIMARY,40.41,-74.7,0.0
8095,PO BOX,WINSLOW,PRIMARY,39.65,-74.86,0.0
7101,PO BOX,NEWARK,PRIMARY,40.72,-74.17,0.0
7112,STANDARD,NEWARK,PRIMARY,40.72,-74.17,0.0
7192,UNIQUE,NEWARK,PRIMARY,40.72,-74.17,0.0
7514,STANDARD,PATERSON,PRIMARY,40.91,-74.16,0.0
7865,STANDARD,PORT MURRAY,PRIMARY,40.79,-74.91,0.0
8801,STANDARD,ANNANDALE,PRIMARY,40.64,-74.89,0.0
7630,STANDARD,EMERSON,PRIMARY,40.97,-74.02,0.0
7631,STANDARD,ENGLEWOOD,PRIMARY,40.89,-73.97,0.0
7418,STANDARD,GLENWOOD,PRIMARY,41.24,-74.48,0.0
7839,PO BOX,GREENDELL,PRIMARY,40.97,-74.81,0.0
7641,STANDARD,HAWORTH,PRIMARY,40.96,-73.99,0.0
7430,STANDARD,MAHWAH,PRIMARY,41.08,-74.18,0.0
7432,STANDARD,MIDLAND PARK,PRIMARY,40.99,-74.14,0.0
7645,STANDARD,MONTVALE,PRIMARY,41.05,-74.04,0.0
7646,STANDARD,NEW MILFORD,PRIMARY,40.93,-74.01,0.0
7863,STANDARD,OXFORD,PRIMARY,40.81,-74.99,0.0
7055,STANDARD,PASSAIC,PRIMARY,40.85,-74.12,0.0
7501,STANDARD,PATERSON,PRIMARY,40.91,-74.16,0.0
7504,STANDARD,PATERSON,PRIMARY,40.91,-74.16,0.0
8880,STANDARD,SOUTH BOUND BROOK,PRIMARY,40.55,-74.52,0.0
7921,STANDARD,BEDMINSTER,PRIMARY,40.65,-74.67,0.0
8816,STANDARD,EAST BRUNSWICK,PRIMARY,40.42,-74.41,0.0
7020,STANDARD,EDGEWATER,PRIMARY,40.82,-73.97,0.0
8899,STANDARD,EDISON,PRIMARY,40.52,-74.36,0.0
7840,STANDARD,HACKETTSTOWN,PRIMARY,40.85,-74.82,0.0
8830,STANDARD,ISELIN,PRIMARY,40.57,-74.31,0.0
7848,STANDARD,LAFAYETTE,PRIMARY,41.09,-74.68,0.0
8868,PO BOX,QUAKERTOWN,PRIMARY,40.55,-74.94,0.0
7066,STANDARD,CLARK,PRIMARY,40.62,-74.31,0.0
7074,STANDARD,MOONACHIE,PRIMARY,40.84,-74.05,0.0
8886,STANDARD,STEWARTSVILLE,PRIMARY,40.69,-75.1,0.0
7720,STANDARD,BRADLEY BEACH,PRIMARY,40.2,-74.01,0.0
8321,PO BOX,FORTESCUE,PRIMARY,39.22,-75.13,0.0
7730,STANDARD,HAZLET,PRIMARY,40.42,-74.17,0.0
8324,STANDARD,HEISLERVILLE,PRIMARY,39.24,-74.99,0.0
8326,STANDARD,LANDISVILLE,PRIMARY,39.52,-74.93,0.0
7738,STANDARD,LINCROFT,PRIMARY,40.34,-74.12,0.0
8231,PO BOX,OCEANVILLE,PRIMARY,39.48,-74.47,0.0
8353,PO BOX,SHILOH,PRIMARY,39.45,-75.29,0.0
8605,PO BOX,TRENTON,PRIMARY,40.22,-74.76,0.0
7675,STANDARD,WESTWOOD,PRIMARY,40.98,-74.03,0.0
7405,STANDARD,BUTLER,PRIMARY,40.99,-74.34,0.0
7806,STANDARD,PICATINNY ARSENAL,PRIMARY,40.93,-74.54,0.0
7017,STANDARD,EAST ORANGE,PRIMARY,40.76,-74.21,0.0
7027,STANDARD,GARWOOD,PRIMARY,40.65,-74.32,0.0
7420,STANDARD,HASKELL,PRIMARY,41.02,-74.3,0.0
7842,PO BOX,HIBERNIA,PRIMARY,40.96,-74.48,0.0
7852,STANDARD,LEDGEWOOD,PRIMARY,40.88,-74.66,0.0
7853,STANDARD,LONG VALLEY,PRIMARY,40.78,-74.76,0.0
8840,STANDARD,METUCHEN,PRIMARY,40.54,-74.36,0.0
7050,STANDARD,ORANGE,PRIMARY,40.76,-74.23,0.0
7543,PO BOX,PATERSON,PRIMARY,40.91,-74.16,0.0
7062,STANDARD,PLAINFIELD,PRIMARY,40.63,-74.4,0.0
7874,STANDARD,STANHOPE,PRIMARY,40.91,-74.7,0.0
7463,STANDARD,WALDWICK,PRIMARY,41.01,-74.12,0.0
7716,STANDARD,ATLANTIC HIGHLANDS,PRIMARY,40.4,-74.03,0.0
7726,STANDARD,ENGLISHTOWN,PRIMARY,40.29,-74.36,0.0
8740,PO BOX,OCEAN GATE,PRIMARY,39.92,-74.13,0.0
8084,STANDARD,STRATFORD,PRIMARY,39.82,-75.01,0.0
8641,STANDARD,TRENTON,PRIMARY,40.22,-74.76,0.0
7823,STANDARD,BELVIDERE,PRIMARY,40.82,-75.07,0.0
7829,PO BOX,BUTTZVILLE,PRIMARY,40.82,-75.04,0.0
7624,STANDARD,CLOSTER,PRIMARY,40.97,-73.96,0.0
7016,STANDARD,CRANFORD,PRIMARY,40.65,-74.3,0.0
7410,STANDARD,FAIR LAWN,PRIMARY,40.93,-74.11,0.0
8822,STANDARD,FLEMINGTON,PRIMARY,40.5,-74.86,0.0
7436,STANDARD,OAKLAND,PRIMARY,41.03,-74.24,0.0
7064,STANDARD,PORT READING,PRIMARY,40.56,-74.24,0.0
7067,STANDARD,COLONIA,PRIMARY,40.59,-74.31,0.0
7866,STANDARD,ROCKAWAY,PRIMARY,40.89,-74.51,0.0
8882,STANDARD,SOUTH RIVER,PRIMARY,40.44,-74.37,0.0
8730,STANDARD,BRIELLE,PRIMARY,40.1,-74.06,0.0
8104,STANDARD,CAMDEN,PRIMARY,39.93,-75.1,0.0
8107,STANDARD,OAKLYN,PRIMARY,39.9,-75.08,0.0
8514,STANDARD,CREAM RIDGE,PRIMARY,40.14,-74.49,0.0
7799,STANDARD,EATONTOWN,PRIMARY,40.29,-74.05,0.0
8025,PO BOX,EWAN,PRIMARY,39.71,-75.23,0.0
7732,STANDARD,HIGHLANDS,PRIMARY,40.4,-73.99,0.0
7737,STANDARD,LEONARDO,PRIMARY,40.41,-74.06,0.0
8340,STANDARD,MILMAY,PRIMARY,39.44,-74.86,0.0
8074,PO BOX,RICHWOOD,PRIMARY,39.71,-75.23,0.0
7763,PO BOX,TENNENT,PRIMARY,40.29,-74.36,0.0
8650,PO BOX,TRENTON,PRIMARY,40.22,-74.76,0.0
8087,STANDARD,TUCKERTON,PRIMARY,39.59,-74.32,0.0
8094,STANDARD,WILLIAMSTOWN,PRIMARY,39.68,-74.98,0.0
8901,STANDARD,NEW BRUNSWICK,PRIMARY,40.48,-74.44,0.0
7054,STANDARD,PARSIPPANY,PRIMARY,40.85,-74.4,0.0
8807,STANDARD,BRIDGEWATER,PRIMARY,40.59,-74.62,0.0
7208,STANDARD,ELIZABETH,PRIMARY,40.66,-74.19,0.0
7021,STANDARD,ESSEX FELLS,PRIMARY,40.82,-74.28,0.0
7035,STANDARD,LINCOLN PARK,PRIMARY,40.92,-74.3,0.0
7044,STANDARD,VERONA,PRIMARY,40.83,-74.24,0.0
7105,STANDARD,NEWARK,PRIMARY,40.72,-74.17,0.0
8902,STANDARD,NORTH BRUNSWICK,PRIMARY,40.45,-74.48,0.0
8857,STANDARD,OLD BRIDGE,PRIMARY,40.39,-74.33,0.0
7071,STANDARD,LYNDHURST,PRIMARY,40.79,-74.11,0.0
7076,STANDARD,SCOTCH PLAINS,PRIMARY,40.63,-74.37,0.0
7077,STANDARD,SEWAREN,PRIMARY,40.55,-74.26,0.0
8405,UNIQUE,ATLANTIC CITY,PRIMARY,39.36,-74.42,0.0
8518,STANDARD,FLORENCE,PRIMARY,40.11,-74.8,0.0
7728,STANDARD,FREEHOLD,PRIMARY,40.25,-74.27,0.0
8027,STANDARD,GIBBSTOWN,PRIMARY,39.82,-75.27,0.0
8056,STANDARD,MICKLETON,PRIMARY,39.78,-75.25,0.0
8230,STANDARD,OCEAN VIEW,PRIMARY,39.2,-74.71,0.0
8602,PO BOX,TRENTON,PRIMARY,40.22,-74.76,0.0
8648,STANDARD,LAWRENCE TOWNSHIP,PRIMARY,40.22,-74.76,0.0
8691,STANDARD,TRENTON,PRIMARY,40.22,-74.76,0.0
8360,STANDARD,VINELAND,PRIMARY,39.46,-74.99,0.0
8205,STANDARD,ABSECON,PRIMARY,39.48,-74.47,0.0
8010,STANDARD,BEVERLY,PRIMARY,40.06,-74.92,0.0
8210,STANDARD,CAPE MAY COURT HOUSE,PRIMARY,39.07,-74.82,0.0
7723,STANDARD,DEAL,PRIMARY,40.24,-73.99,0.0
8332,STANDARD,MILLVILLE,PRIMARY,39.39,-75.05,0.0
7751,STANDARD,MORGANVILLE,PRIMARY,40.36,-74.25,0.0
8551,STANDARD,RINGOES,PRIMARY,40.44,-74.82,0.0
8092,STANDARD,WEST CREEK,PRIMARY,39.65,-74.28,0.0
8260,STANDARD,WILDWOOD,PRIMARY,38.98,-74.82,0.0
7522,STANDARD,PATERSON,PRIMARY,40.91,-74.16,0.0
8817,STANDARD,EDISON,PRIMARY,40.52,-74.36,0.0
8818,PO BOX,EDISON,PRIMARY,40.52,-74.36,0.0
7305,STANDARD,JERSEY CITY,PRIMARY,40.71,-74.06,0.0
7039,STANDARD,LIVINGSTON,PRIMARY,40.78,-74.32,0.0
7940,STANDARD,MADISON,PRIMARY,40.75,-74.41,0.0
7114,STANDARD,NEWARK,PRIMARY,40.72,-74.17,0.0
7199,UNIQUE,NEWARK,PRIMARY,40.72,-74.17,0.0
7502,STANDARD,PATERSON,PRIMARY,40.91,-74.16,0.0
7920,STANDARD,BASKING RIDGE,PRIMARY,40.67,-74.56,0.0
7924,STANDARD,BERNARDSVILLE,PRIMARY,40.73,-74.59,0.0
7927,STANDARD,CEDAR KNOLLS,PRIMARY,40.82,-74.45,0.0
7801,STANDARD,DOVER,PRIMARY,40.88,-74.55,0.0
7407,STANDARD,ELMWOOD PARK,PRIMARY,40.9,-74.11,0.0
7603,STANDARD,BOGOTA,PRIMARY,40.87,-74.02,0.0
7421,STANDARD,HEWITT,PRIMARY,41.16,-74.35,0.0
8829,STANDARD,HIGH BRIDGE,PRIMARY,40.66,-74.89,0.0
8905,UNIQUE,NEW BRUNSWICK,PRIMARY,40.48,-74.44,0.0
7974,STANDARD,NEW PROVIDENCE,PRIMARY,40.7,-74.4,0.0
7656,STANDARD,PARK RIDGE,PRIMARY,41.03,-74.04,0.0
7507,PO BOX,HAWTHORNE,PRIMARY,40.95,-74.15,0.0
7538,PO BOX,HALEDON,PRIMARY,40.93,-74.18,0.0
8855,PO BOX,PISCATAWAY,PRIMARY,40.51,-74.45,0.0
7661,STANDARD,RIVER EDGE,PRIMARY,40.92,-74.04,0.0
7070,STANDARD,RUTHERFORD,PRIMARY,40.81,-74.1,0.0
7461,STANDARD,SUSSEX,PRIMARY,41.2,-74.6,0.0
8001,PO BOX,ALLOWAY,PRIMARY,39.56,-75.34,0.0
8006,PO BOX,BARNEGAT LIGHT,PRIMARY,39.75,-74.11,0.0
8302,STANDARD,BRIDGETON,PRIMARY,39.42,-75.22,0.0
8103,STANDARD,CAMDEN,PRIMARY,39.93,-75.1,0.0
8003,STANDARD,CHERRY HILL,PRIMARY,39.9,-74.99,0.0
8029,STANDARD,GLENDORA,PRIMARY,39.84,-75.06,0.0
8030,STANDARD,GLOUCESTER CITY,PRIMARY,39.89,-75.11,0.0
8528,STANDARD,KINGSTON,PRIMARY,40.37,-74.6,0.0
8734,STANDARD,LANOKA HARBOR,PRIMARY,39.86,-74.16,0.0
8070,STANDARD,PENNSVILLE,PRIMARY,39.65,-75.51,0.0
8080,STANDARD,SEWELL,PRIMARY,39.75,-75.09,0.0
8601,PO BOX,TRENTON,PRIMARY,40.22,-74.76,0.0
8618,STANDARD,TRENTON,PRIMARY,40.22,-74.76,0.0
8690,STANDARD,TRENTON,PRIMARY,40.22,-74.76,0.0
7825,STANDARD,BLAIRSTOWN,PRIMARY,40.98,-74.96,0.0
7834,STANDARD,DENVILLE,PRIMARY,40.89,-74.48,0.0
8820,STANDARD,EDISON,PRIMARY,40.52,-74.36,0.0
7932,STANDARD,FLORHAM PARK,PRIMARY,40.77,-74.39,0.0
8823,STANDARD,FRANKLIN PARK,PRIMARY,40.44,-74.54,0.0
7026,STANDARD,GARFIELD,PRIMARY,40.87,-74.1,0.0
7419,STANDARD,HAMBURG,PRIMARY,41.14,-74.57,0.0
7648,STANDARD,NORWOOD,PRIMARY,40.99,-73.95,0.0
7524,STANDARD,PATERSON,PRIMARY,40.91,-74.16,0.0
7977,PO BOX,PEAPACK,PRIMARY,40.7,-74.66,0.0
7078,STANDARD,SHORT HILLS,PRIMARY,40.74,-74.33,0.0
8876,STANDARD,SOMERVILLE,PRIMARY,40.57,-74.61,0.0
7460,STANDARD,STOCKHOLM,PRIMARY,41.1,-74.53,0.0
7670,STANDARD,TENAFLY,PRIMARY,40.91,-73.95,0.0
8202,STANDARD,AVALON,PRIMARY,39.09,-74.73,0.0
7719,STANDARD,BELMAR,PRIMARY,40.17,-74.02,0.0
8012,STANDARD,BLACKWOOD,PRIMARY,39.79,-75.06,0.0
8204,STANDARD,CAPE MAY,PRIMARY,38.94,-74.9,0.0
8002,STANDARD,CHERRY HILL,PRIMARY,39.9,-74.99,0.0
8215,STANDARD,EGG HARBOR CITY,PRIMARY,39.56,-74.59,0.0
7734,STANDARD,KEANSBURG,PRIMARY,40.44,-74.13,0.0
8735,STANDARD,LAVALLETTE,PRIMARY,39.96,-74.06,0.0
7747,STANDARD,MATAWAN,PRIMARY,40.41,-74.23,0.0
8341,STANDARD,MINOTOLA,PRIMARY,39.51,-74.94,0.0
7757,STANDARD,OCEANPORT,PRIMARY,40.31,-74.02,0.0
7703,STANDARD,FORT MONMOUTH,PRIMARY,40.31,-74.03,0.0
8362,PO BOX,VINELAND,PRIMARY,39.46,-74.99,0.0
8008,STANDARD,BEACH HAVEN,PRIMARY,39.55,-74.24,0.0
8515,STANDARD,CHESTERFIELD,PRIMARY,40.15,-74.66,0.0
8316,PO BOX,DORCHESTER,PRIMARY,39.28,-74.94,0.0
8052,STANDARD,MAPLE SHADE,PRIMARY,39.95,-74.99,0.0
8330,STANDARD,MAYS LANDING,PRIMARY,39.45,-74.72,0.0
8061,STANDARD,MOUNT ROYAL,PRIMARY,39.81,-75.2,0.0
8226,STANDARD,OCEAN CITY,PRIMARY,39.26,-74.6,0.0
8066,STANDARD,PAULSBORO,PRIMARY,39.83,-75.24,0.0
8083,STANDARD,SOMERDALE,PRIMARY,39.84,-75.02,0.0
7677,STANDARD,WOODCLIFF LAKE,PRIMARY,41.02,-74.05,0.0
8802,STANDARD,ASBURY,PRIMARY,40.67,-75.02,0.0
7828,STANDARD,BUDD LAKE,PRIMARY,40.87,-74.73,0.0
7018,STANDARD,EAST ORANGE,PRIMARY,40.76,-74.21,0.0
8836,STANDARD,MARTINSVILLE,PRIMARY,40.6,-74.56,0.0
7650,STANDARD,PALISADES PARK,PRIMARY,40.84,-73.99,0.0
7544,PO BOX,PATERSON,PRIMARY,40.91,-74.16,0.0
7094,STANDARD,SECAUCUS,PRIMARY,40.78,-74.06,0.0
7090,STANDARD,WESTFIELD,PRIMARY,40.65,-74.34,0.0
7983,UNIQUE,WHIPPANY,PRIMARY,40.82,-74.41,0.0
8988,UNIQUE,NEW BRUNSWICK,PRIMARY,40.45,-74.48,0.0
7003,STANDARD,BLOOMFIELD,PRIMARY,40.81,-74.18,0.0
7007,PO BOX,CALDWELL,PRIMARY,40.83,-74.27,0.0
7202,STANDARD,ELIZABETH,PRIMARY,40.66,-74.19,0.0
7207,PO BOX,ELIZABETH,PRIMARY,40.66,-74.19,0.0
7846,PO BOX,JOHNSONBURG,PRIMARY,40.96,-74.88,0.0
7036,STANDARD,LINDEN,PRIMARY,40.62,-74.23,0.0
7107,STANDARD,NEWARK,PRIMARY,40.72,-74.17,0.0
7184,UNIQUE,NEWARK,PRIMARY,40.72,-74.17,0.0
7188,UNIQUE,NEWARK,PRIMARY,40.72,-74.17,0.0
8879,STANDARD,SOUTH AMBOY,PRIMARY,40.47,-74.29,0.0
7088,STANDARD,VAUXHALL,PRIMARY,40.71,-74.28,0.0
7465,STANDARD,WANAQUE,PRIMARY,41.04,-74.29,0.0
8720,PO BOX,ALLENWOOD,PRIMARY,40.13,-74.09,0.0
8406,STANDARD,VENTNOR CITY,PRIMARY,39.34,-74.48,0.0
8016,STANDARD,BURLINGTON,PRIMARY,40.07,-74.85,0.0
8106,STANDARD,AUDUBON,PRIMARY,39.88,-75.07,0.0
8213,PO BOX,COLOGNE,PRIMARY,39.51,-74.56,0.0
8035,STANDARD,HADDON HEIGHTS,PRIMARY,39.87,-75.06,0.0
8036,STANDARD,HAINESPORT,PRIMARY,39.98,-74.82,0.0
8037,STANDARD,HAMMONTON,PRIMARY,39.65,-74.77,0.0
8038,PO BOX,HANCOCKS BRIDGE,PRIMARY,39.47,-75.45,0.0
8220,PO BOX,LEEDS POINT,PRIMARY,39.49,-74.43,0.0
8221,STANDARD,LINWOOD,PRIMARY,39.34,-74.57,0.0
8064,PO BOX,NEW LISBON,PRIMARY,39.92,-74.53,0.0
8240,PO BOX,POMONA,PRIMARY,39.46,-74.55,0.0
8557,PO BOX,SERGEANTSVILLE,PRIMARY,40.45,-74.94,0.0
8031,STANDARD,BELLMAWR,PRIMARY,39.86,-75.09,0.0
8753,STANDARD,TOMS RIVER,PRIMARY,39.95,-74.18,100.0
8603,PO BOX,TRENTON,PRIMARY,40.22,-74.76,0.0
7481,STANDARD,WYCKOFF,PRIMARY,40.99,-74.16,0.0
7601,STANDARD,HACKENSACK,PRIMARY,40.88,-74.04,0.0
7960,STANDARD,MORRISTOWN,PRIMARY,40.79,-74.47,0.0
7104,STANDARD,NEWARK,PRIMARY,40.72,-74.17,0.0
7450,STANDARD,RIDGEWOOD,PRIMARY,40.98,-74.11,0.0
7075,STANDARD,WOOD RIDGE,PRIMARY,40.85,-74.08,0.0
8884,STANDARD,SPOTSWOOD,PRIMARY,40.39,-74.39,0.0
7877,PO BOX,SWARTSWOOD,PRIMARY,41.09,-74.84,0.0
7087,STANDARD,UNION CITY,PRIMARY,40.76,-74.03,0.0
7092,STANDARD,MOUNTAINSIDE,PRIMARY,40.68,-74.36,0.0
8403,STANDARD,LONGPORT,PRIMARY,39.31,-74.52,0.0
7735,STANDARD,KEYPORT,PRIMARY,40.43,-74.2,0.0
8738,STANDARD,MANTOLOKING,PRIMARY,40.04,-74.04,0.0
8051,STANDARD,MANTUA,PRIMARY,39.78,-75.17,0.0
7750,STANDARD,MONMOUTH BEACH,PRIMARY,40.33,-73.98,0.0
8077,STANDARD,RIVERTON,PRIMARY,40.01,-75.01,0.0
8553,STANDARD,ROCKY HILL,PRIMARY,40.4,-74.63,0.0
8756,PO BOX,TOMS RIVER,PRIMARY,39.95,-74.18,0.0
8604,PO BOX,TRENTON,PRIMARY,40.22,-74.76,0.0
8606,PO BOX,TRENTON,PRIMARY,40.22,-74.76,0.0
8608,STANDARD,TRENTON,PRIMARY,40.22,-74.76,0.0
8610,STANDARD,TRENTON,PRIMARY,40.22,-74.76,0.0
8835,STANDARD,MANVILLE,PRIMARY,40.54,-74.58,0.0
7040,STANDARD,MAPLEWOOD,PRIMARY,40.73,-74.27,0.0
7946,STANDARD,MILLINGTON,PRIMARY,40.66,-74.51,0.0
8922,UNIQUE,NEW BRUNSWICK,PRIMARY,40.48,-74.45,0.0
7939,STANDARD,LYONS,PRIMARY,40.66,-74.55,0.0
7002,STANDARD,BAYONNE,PRIMARY,40.66,-74.11,0.0
7621,STANDARD,BERGENFIELD,PRIMARY,40.92,-73.99,0.0
7004,STANDARD,FAIRFIELD,PRIMARY,40.88,-74.3,0.0
7830,STANDARD,CALIFON,PRIMARY,40.71,-74.83,0.0
7010,STANDARD,CLIFFSIDE PARK,PRIMARY,40.82,-73.98,0.0
7029,STANDARD,HARRISON,PRIMARY,40.74,-74.15,0.0
8844,STANDARD,HILLSBOROUGH,PRIMARY,40.47,-74.62,0.0
7676,STANDARD,TOWNSHIP OF WASHINGTON,PRIMARY,40.98,-74.06,0.0
8824,STANDARD,KENDALL PARK,PRIMARY,40.41,-74.56,0.0
7644,STANDARD,LODI,PRIMARY,40.87,-74.08,0.0
7041,STANDARD,MILLBURN,PRIMARY,40.74,-74.32,0.0
7045,STANDARD,MONTVILLE,PRIMARY,40.9,-74.36,0.0
7950,STANDARD,MORRIS PLAINS,PRIMARY,40.83,-74.48,0.0
7860,STANDARD,NEWTON,PRIMARY,41.05,-74.75,0.0
7439,STANDARD,OGDENSBURG,PRIMARY,41.07,-74.59,0.0
7652,STANDARD,PARAMUS,PRIMARY,40.94,-74.07,0.0
7057,STANDARD,WALLINGTON,PRIMARY,40.85,-74.1,0.0
7061,PO BOX,PLAINFIELD,PRIMARY,40.63,-74.4,0.0
7452,STANDARD,GLEN ROCK,PRIMARY,40.95,-74.12,0.0
8201,STANDARD,ABSECON,PRIMARY,39.42,-74.49,0.0
7718,STANDARD,BELFORD,PRIMARY,40.41,-74.08,0.0
8505,STANDARD,BORDENTOWN,PRIMARY,40.14,-74.7,0.0
8109,STANDARD,MERCHANTVILLE,PRIMARY,39.94,-75.05,0.0
8315,PO BOX,DIVIDING CREEK,PRIMARY,39.22,-75.13,0.0
8217,PO BOX,ELWOOD,PRIMARY,39.6,-74.68,0.0
8320,PO BOX,FAIRTON,PRIMARY,39.37,-75.21,0.0
7748,STANDARD,MIDDLETOWN,PRIMARY,40.39,-74.11,0.0
7756,STANDARD,OCEAN GROVE,PRIMARY,40.21,-74.0,0.0
8542,STANDARD,PRINCETON,PRIMARY,40.35,-74.65,0.0
7760,STANDARD,RUMSON,PRIMARY,40.36,-74.0,0.0
8079,STANDARD,SALEM,PRIMARY,39.56,-75.47,0.0
8750,STANDARD,SEA GIRT,PRIMARY,40.12,-74.03,0.0
8250,PO BOX,TUCKAHOE,PRIMARY,39.28,-74.78,0.0
8007,STANDARD,BARRINGTON,PRIMARY,39.87,-75.05,0.0
8011,PO BOX,BIRMINGHAM,PRIMARY,39.92,-74.53,0.0
8020,STANDARD,CLARKSBORO,PRIMARY,39.8,-75.22,0.0
8050,STANDARD,MANAHAWKIN,PRIMARY,39.69,-74.25,0.0
7746,STANDARD,MARLBORO,PRIMARY,40.31,-74.25,0.0
8057,STANDARD,MOORESTOWN,PRIMARY,39.97,-74.94,0.0
7753,STANDARD,NEPTUNE,PRIMARY,40.21,-74.08,0.0
8348,STANDARD,PORT ELIZABETH,PRIMARY,39.39,-74.88,0.0
8540,STANDARD,PRINCETON,PRIMARY,40.35,-74.65,0.0
8352,PO BOX,ROSENHAYN,PRIMARY,39.47,-75.13,0.0
8244,STANDARD,SOMERS POINT,PRIMARY,39.31,-74.6,0.0
8640,STANDARD,FORT DIX,PRIMARY,40.22,-74.76,0.0
8888,PO BOX,WHITEHOUSE,PRIMARY,40.62,-74.76,0.0
7890,UNIQUE,BRANCHVILLE,PRIMARY,41.14,-74.74,0.0
7204,STANDARD,ROSELLE PARK,PRIMARY,40.66,-74.26,0.0
7604,STANDARD,HASBROUCK HEIGHTS,PRIMARY,40.86,-74.07,0.0
7640,STANDARD,HARRINGTON PARK,PRIMARY,40.98,-73.98,0.0
8828,STANDARD,HELMETTA,PRIMARY,40.37,-74.42,0.0
7845,PO BOX,IRONIA,PRIMARY,40.85,-74.57,0.0
7303,PO BOX,JERSEY CITY,PRIMARY,40.71,-74.06,0.0
7304,STANDARD,JERSEY CITY,PRIMARY,40.71,-74.06,0.0
7198,UNIQUE,NEWARK,PRIMARY,40.72,-74.17,0.0
7444,STANDARD,POMPTON PLAINS,PRIMARY,40.96,-74.3,0.0
7981,STANDARD,WHIPPANY,PRIMARY,40.82,-74.41,0.0
7822,STANDARD,AUGUSTA,PRIMARY,41.14,-74.68,0.0
8804,STANDARD,BLOOMSBURY,PRIMARY,40.65,-75.08,0.0
7926,PO BOX,BROOKSIDE,PRIMARY,40.76,-74.6,0.0
7626,STANDARD,CRESSKILL,PRIMARY,40.93,-73.95,0.0
7019,PO BOX,EAST ORANGE,PRIMARY,40.76,-74.21,0.0
7024,STANDARD,FORT LEE,PRIMARY,40.85,-73.97,0.0
7307,STANDARD,JERSEY CITY,PRIMARY,40.71,-74.06,0.0
7032,STANDARD,KEARNY,PRIMARY,40.75,-74.11,0.0
7847,STANDARD,KENVIL,PRIMARY,40.88,-74.62,0.0
8834,PO BOX,LITTLE YORK,PRIMARY,40.6,-75.05,0.0
8852,STANDARD,MONMOUTH JUNCTION,PRIMARY,40.38,-74.54,0.0
7109,STANDARD,BELLEVILLE,PRIMARY,40.79,-74.16,0.0
8904,STANDARD,HIGHLAND PARK,PRIMARY,40.5,-74.42,0.0
7047,STANDARD,NORTH BERGEN,PRIMARY,40.79,-74.02,0.0
8859,STANDARD,PARLIN,PRIMARY,40.45,-74.3,0.0
7533,PO BOX,PATERSON,PRIMARY,40.91,-74.16,0.0
8867,STANDARD,PITTSTOWN,PRIMARY,40.57,-74.96,0.0
7065,STANDARD,RAHWAY,PRIMARY,40.6,-74.28,0.0
7662,STANDARD,ROCHELLE PARK,PRIMARY,40.9,-74.07,0.0
7182,UNIQUE,NEWARK,PRIMARY,40.73,-74.17,0.0
8501,STANDARD,ALLENTOWN,PRIMARY,40.17,-74.58,0.0
8009,STANDARD,BERLIN,PRIMARY,39.79,-74.93,0.0
8015,STANDARD,BROWNS MILLS,PRIMARY,39.95,-74.55,0.0
8312,STANDARD,CLAYTON,PRIMARY,39.65,-75.08,0.0
7727,STANDARD,FARMINGDALE,PRIMARY,40.19,-74.17,0.0
8322,STANDARD,FRANKLINVILLE,PRIMARY,39.61,-75.02,0.0
8041,STANDARD,JOBSTOWN,PRIMARY,40.03,-74.68,0.0
8055,STANDARD,MEDFORD,PRIMARY,39.86,-74.82,0.0
8739,PO BOX,NORMANDY BEACH,PRIMARY,40.0,-74.06,0.0
8232,STANDARD,PLEASANTVILLE,PRIMARY,39.39,-74.51,0.0
8350,STANDARD,RICHLAND,PRIMARY,39.48,-74.87,0.0
8099,PO BOX,BELLMAWR,PRIMARY,39.86,-75.09,0.0
8695,UNIQUE,TRENTON,PRIMARY,40.22,-74.76,0.0
8251,STANDARD,VILLAS,PRIMARY,39.01,-74.93,0.0
8803,PO BOX,BAPTISTOWN,PRIMARY,40.49,-75.0,0.0
7922,STANDARD,BERKELEY HEIGHTS,PRIMARY,40.67,-74.42,0.0
7832,STANDARD,COLUMBIA,PRIMARY,40.95,-75.06,0.0
7632,STANDARD,ENGLEWOOD CLIFFS,PRIMARY,40.88,-73.94,0.0
7043,STANDARD,MONTCLAIR,PRIMARY,40.82,-74.21,0.0
7108,STANDARD,NEWARK,PRIMARY,40.72,-74.17,0.0
8850,STANDARD,MILLTOWN,PRIMARY,40.45,-74.43,0.0
7042,STANDARD,MONTCLAIR,PRIMARY,40.82,-74.21,0.0
7456,STANDARD,RINGWOOD,PRIMARY,41.11,-74.27,0.0
7878,PO BOX,MOUNT TABOR,PRIMARY,40.87,-74.47,0.0
7083,STANDARD,UNION,PRIMARY,40.69,-74.26,0.0
7462,STANDARD,VERNON,PRIMARY,41.18,-74.51,0.0
7093,STANDARD,WEST NEW YORK,PRIMARY,40.78,-74.0,0.0
7715,UNIQUE,BELMAR,PRIMARY,40.17,-74.02,0.0
8102,STANDARD,CAMDEN,PRIMARY,39.93,-75.1,0.0
8019,STANDARD,CHATSWORTH,PRIMARY,39.75,-74.46,0.0
7724,STANDARD,EATONTOWN,PRIMARY,40.29,-74.05,0.0
8225,STANDARD,NORTHFIELD,PRIMARY,39.37,-74.55,0.0
7758,STANDARD,PORT MONMOUTH,PRIMARY,40.43,-74.09,0.0
8241,STANDARD,PORT REPUBLIC,PRIMARY,39.53,-74.48,0.0
8543,PO BOX,PRINCETON,PRIMARY,40.35,-74.65,0.0
8554,STANDARD,ROEBLING,PRIMARY,40.11,-74.77,0.0
8607,PO BOX,TRENTON,PRIMARY,40.22,-74.76,0.0
8090,STANDARD,WENONAH,PRIMARY,39.79,-75.14,0.0
8046,STANDARD,WILLINGBORO,PRIMARY,40.02,-74.88,0.0
7885,STANDARD,WHARTON,PRIMARY,40.89,-74.58,0.0
7820,PO BOX,ALLAMUCHY,PRIMARY,40.91,-74.83,0.0
7831,PO BOX,CHANGEWATER,PRIMARY,40.74,-74.95,0.0
7802,PO BOX,DOVER,PRIMARY,40.88,-74.55,0.0
7206,STANDARD,ELIZABETHPORT,PRIMARY,40.66,-74.19,0.0
7836,STANDARD,FLANDERS,PRIMARY,40.84,-74.7,0.0
7605,STANDARD,LEONIA,PRIMARY,40.86,-73.99,0.0
7843,STANDARD,HOPATCONG,PRIMARY,40.95,-74.65,0.0
7851,STANDARD,LAYTON,PRIMARY,41.21,-74.82,0.0
8853,STANDARD,NESHANIC STATION,PRIMARY,40.49,-74.73,0.0
7175,UNIQUE,NEWARK,PRIMARY,40.72,-74.17,0.0
7511,PO BOX,TOTOWA,PRIMARY,40.9,-74.22,0.0
7457,STANDARD,RIVERDALE,PRIMARY,40.99,-74.3,0.0
7081,STANDARD,SPRINGFIELD,PRIMARY,40.69,-74.32,0.0
8018,PO BOX,CEDAR BROOK,PRIMARY,39.72,-74.9,0.0
8062,STANDARD,MULLICA HILL,PRIMARY,39.73,-75.22,0.0
8071,STANDARD,PITMAN,PRIMARY,39.73,-75.13,0.0
8559,STANDARD,STOCKTON,PRIMARY,40.4,-74.97,0.0
8247,STANDARD,STONE HARBOR,PRIMARY,39.04,-74.76,0.0
8645,UNIQUE,TRENTON,PRIMARY,40.22,-74.76,0.0
8562,STANDARD,WRIGHTSTOWN,PRIMARY,40.02,-74.63,0.0
8721,STANDARD,BAYVILLE,PRIMARY,39.91,-74.21,0.0
8724,STANDARD,BRICK,PRIMARY,40.06,-74.11,0.0
8512,STANDARD,CRANBURY,PRIMARY,40.31,-74.51,0.0
8534,STANDARD,PENNINGTON,PRIMARY,40.32,-74.79,0.0
8758,STANDARD,WARETOWN,PRIMARY,39.78,-74.19,0.0
7765,PO BOX,WICKATUNK,PRIMARY,40.35,-74.26,0.0
8098,STANDARD,WOODSTOWN,PRIMARY,39.65,-75.32,0.0
7001,STANDARD,AVENEL,PRIMARY,40.58,-74.27,0.0
7936,STANDARD,EAST HANOVER,PRIMARY,40.81,-74.36,0.0
7203,STANDARD,ROSELLE,PRIMARY,40.65,-74.26,0.0
7028,STANDARD,GLEN RIDGE,PRIMARY,40.8,-74.2,0.0
7838,STANDARD,GREAT MEADOWS,PRIMARY,40.84,-74.94,0.0
7606,STANDARD,SOUTH HACKENSACK,PRIMARY,40.86,-74.04,0.0
7306,STANDARD,JERSEY CITY,PRIMARY,40.71,-74.06,0.0
7031,STANDARD,NORTH ARLINGTON,PRIMARY,40.79,-74.12,0.0
7945,STANDARD,MENDHAM,PRIMARY,40.76,-74.59,0.0
7649,STANDARD,ORADELL,PRIMARY,40.95,-74.03,0.0
7509,PO BOX,PATERSON,PRIMARY,40.91,-74.16,0.0
7063,STANDARD,PLAINFIELD,PRIMARY,40.63,-74.4,0.0
7660,STANDARD,RIDGEFIELD PARK,PRIMARY,40.85,-74.02,0.0
7480,STANDARD,WEST MILFORD,PRIMARY,41.1,-74.39,0.0
7403,STANDARD,BLOOMINGDALE,PRIMARY,41.02,-74.33,0.0
7930,STANDARD,CHESTER,PRIMARY,40.78,-74.69,0.0
8821,PO BOX,FLAGTOWN,PRIMARY,40.51,-74.67,0.0
7608,STANDARD,TETERBORO,PRIMARY,40.85,-74.06,0.0
7308,PO BOX,JERSEY CITY,PRIMARY,40.71,-74.06,0.0
7034,STANDARD,LAKE HIAWATHA,PRIMARY,40.88,-74.38,0.0
7106,STANDARD,NEWARK,PRIMARY,40.72,-74.17,0.0
7503,STANDARD,PATERSON,PRIMARY,40.91,-74.16,0.0
7880,PO BOX,VIENNA,PRIMARY,40.87,-74.89,0.0
8401,STANDARD,ATLANTIC CITY,PRIMARY,39.36,-74.42,0.0
8101,PO BOX,CAMDEN,PRIMARY,39.93,-75.1,0.0
8023,PO BOX,DEEPWATER,PRIMARY,39.62,-75.51,0.0
8314,STANDARD,DELMONT,PRIMARY,39.2,-74.97,0.0
8317,STANDARD,DOROTHY,PRIMARY,39.4,-74.82,0.0
8049,STANDARD,MAGNOLIA,PRIMARY,39.85,-75.03,0.0
8755,STANDARD,TOMS RIVER,PRIMARY,39.95,-74.18,0.0
8757,STANDARD,TOMS RIVER,PRIMARY,39.95,-74.18,0.0
8638,STANDARD,TRENTON,PRIMARY,40.22,-74.76,0.0
8088,STANDARD,VINCENTOWN,PRIMARY,39.8,-74.62,0.0
8889,STANDARD,WHITEHOUSE STATION,PRIMARY,40.6,-74.76,0.0
8826,STANDARD,GLEN GARDNER,PRIMARY,40.69,-74.94,0.0
7602,PO BOX,HACKENSACK,PRIMARY,40.88,-74.04,0.0
7030,STANDARD,HOBOKEN,PRIMARY,40.74,-74.02,0.0
7844,PO BOX,HOPE,PRIMARY,40.91,-74.96,0.0
7097,UNIQUE,JERSEY CITY,PRIMARY,40.71,-74.06,0.0
7099,UNIQUE,KEARNY,PRIMARY,40.75,-74.11,0.0
7849,STANDARD,LAKE HOPATCONG,PRIMARY,40.96,-74.61,0.0
7110,STANDARD,NUTLEY,PRIMARY,40.81,-74.15,0.0
8872,STANDARD,SAYREVILLE,PRIMARY,40.46,-74.32,0.0
7870,PO BOX,SCHOOLEYS MOUNTAIN,PRIMARY,40.78,-74.79,0.0
7875,PO BOX,STILLWATER,PRIMARY,41.05,-74.86,0.0
7902,PO BOX,SUMMIT,PRIMARY,40.71,-74.36,0.0
8510,STANDARD,MILLSTONE TOWNSHIP,PRIMARY,40.19,-74.42,0.0
8526,PO BOX,IMLAYSTOWN,PRIMARY,40.16,-74.49,0.0
8028,STANDARD,GLASSBORO,PRIMARY,39.7,-75.11,0.0
8219,PO BOX,GREEN CREEK,PRIMARY,39.04,-74.91,0.0
8032,STANDARD,GRENLOCH,PRIMARY,39.77,-75.05,0.0
8527,STANDARD,JACKSON,PRIMARY,40.1,-74.35,0.0
8327,STANDARD,LEESBURG,PRIMARY,39.23,-75.0,0.0
8343,STANDARD,MONROEVILLE,PRIMARY,39.64,-75.16,0.0
7755,STANDARD,OAKHURST,PRIMARY,40.26,-74.02,0.0
8089,STANDARD,WATERFORD WORKS,PRIMARY,39.71,-74.81,0.0
7764,STANDARD,WEST LONG BRANCH,PRIMARY,40.29,-74.01,0.0
8270,STANDARD,WOODBINE,PRIMARY,39.22,-74.8,0.0
8402,STANDARD,MARGATE CITY,PRIMARY,39.33,-74.5,0.0
7717,STANDARD,AVON BY THE SEA,PRIMARY,40.19,-74.01,0.0
8722,STANDARD,BEACHWOOD,PRIMARY,39.92,-74.2,0.0
8511,STANDARD,COOKSTOWN,PRIMARY,40.04,-74.55,0.0
8214,PO BOX,DENNISVILLE,PRIMARY,39.22,-74.85,0.0
8731,STANDARD,FORKED RIVER,PRIMARY,39.84,-74.19,0.0
8323,STANDARD,GREENWICH,PRIMARY,39.39,-75.36,0.0
8224,PO BOX,NEW GRETNA,PRIMARY,39.71,-74.52,0.0
8234,STANDARD,EGG HARBOR TOWNSHIP,PRIMARY,39.41,-74.58,0.0
8541,UNIQUE,PRINCETON,PRIMARY,40.35,-74.65,0.0
8072,PO BOX,QUINTON,PRIMARY,39.52,-75.38,0.0
7701,STANDARD,RED BANK,PRIMARY,40.34,-74.06,0.0
7709,UNIQUE,RED BANK,PRIMARY,40.23,-74.0,0.0
8245,PO BOX,SOUTH DENNIS,PRIMARY,39.17,-74.82,0.0
7762,STANDARD,SPRING LAKE,PRIMARY,40.15,-74.02,0.0
7999,STANDARD,WHIPPANY,PRIMARY,40.82,-74.41,0.0
7095,STANDARD,WOODBRIDGE,PRIMARY,40.55,-74.28,0.0
8810,STANDARD,DAYTON,PRIMARY,40.38,-74.51,0.0
7627,STANDARD,DEMAREST,PRIMARY,40.95,-73.95,0.0
7023,STANDARD,FANWOOD,PRIMARY,40.64,-74.38,0.0
7837,PO BOX,GLASSER,PRIMARY,40.98,-74.63,0.0
8827,STANDARD,HAMPTON,PRIMARY,40.7,-74.96,0.0
7422,STANDARD,HIGHLAND LAKES,PRIMARY,41.17,-74.44,0.0
7435,STANDARD,NEWFOUNDLAND,PRIMARY,41.07,-74.42,0.0
7505,STANDARD,PATERSON,PRIMARY,40.91,-74.16,0.0
7513,STANDARD,PATERSON,PRIMARY,40.91,-74.16,0.0
8854,STANDARD,PISCATAWAY,PRIMARY,40.51,-74.45,0.0
7442,STANDARD,POMPTON LAKES,PRIMARY,41.0,-74.28,0.0
8870,PO BOX,READINGTON,PRIMARY,40.57,-74.73,0.0
7068,STANDARD,ROSELAND,PRIMARY,40.82,-74.3,0.0
7458,STANDARD,SADDLE RIVER,PRIMARY,41.02,-74.09,0.0
8875,PO BOX,SOMERSET,PRIMARY,40.49,-74.48,0.0
7901,STANDARD,SUMMIT,PRIMARY,40.71,-74.36,0.0
7470,STANDARD,WAYNE,PRIMARY,40.94,-74.24,0.0
